     2.10           OBSERVATION DATA    M (MIXED)           RINEX VERSION / TYPE
RTKCONV 2.4.2                           20200315 154807 UTC PGM / RUN BY / DATE 
log: C:\Users\Dimoon\Downloads\BINR.bin                     COMMENT             
format: NVS BINR                                            COMMENT             
                                                            MARKER NAME         
                                                            MARKER NUMBER       
                                                            OBSERVER / AGENCY   
                                                            REC # / TYPE / VERS 
                                                            ANT # / TYPE        
  2846208.0587  2200056.7661  5249419.6094                  APPROX POSITION XYZ 
        0.0000        0.0000        0.0000                  ANTENNA: DELTA H/E/N
     1     1                                                WAVELENGTH FACT L1/2
     4    C1    L1    D1    S1                              # / TYPES OF OBSERV 
  2020     2    10    13    37   47.0000000     GPS         TIME OF FIRST OBS   
  2020     2    10    13    40   37.0000000     GPS         TIME OF LAST OBS    
                                                            END OF HEADER       
 20  2 10 13 37 47.0000000  0  1R22
 -50051133.193    62583638.498         526.493          55.000  
 20  2 10 13 37 48.0000000  0  1R22
 -50051231.586    62583112.432         525.494          55.000  
 20  2 10 13 37 49.0000000  0  1R22
 -50051329.933    62582587.328         524.564          55.000  
 20  2 10 13 37 50.0000000  0  1R22
 -50051428.049    62582063.203         523.693          55.000  
 20  2 10 13 37 51.0000000  0  1R22
 -50051525.933    62581540.060         522.742          55.000  
 20  2 10 13 37 52.0000000  0  1R22
 -50051623.613    62581017.883         521.708          55.000  
 20  2 10 13 37 53.0000000  0  1R22
 -50051721.438    62580496.665         520.681          55.000  
 20  2 10 13 37 54.0000000  0  1R22
 -50051819.408    62579976.399         519.759          55.000  
 20  2 10 13 37 56.0000000  0  1R22
 -50052013.824    62578938.765         517.950          55.000  
 20  2 10 13 37 57.0000000  0  1R22
 -50052110.777    62578421.393         516.871          55.000  
 20  2 10 13 37 58.0000000  0  1R22
 -50052207.223    62577904.970         515.867          55.000  
 20  2 10 13 37 59.0000000  0  1R22
 -50052303.682    62577389.507         514.942          55.000  
 20  2 10 13 38  0.0000000  0  1R22
 -50052400.040    62576875.002         513.992          55.000  
 20  2 10 13 38  1.0000000  0  1R22
 -50052495.904    62576361.457         513.084          55.000  
 20  2 10 13 38  2.0000000  0  1R22
 -50052591.928    62575848.884         512.145          55.000  
 20  2 10 13 38  3.0000000  0  1R22
 -50052687.937    62575337.277         511.139          55.000  
 20  2 10 13 38  4.0000000  0  1R22
 -50052783.860    62574826.640         510.115          55.000  
 20  2 10 13 38  5.0000000  0  1R22
 -50052879.579    62574316.954         509.164          54.000  
 20  2 10 13 38  6.0000000  0  1R22
 -50052975.152    62573808.220         508.289          55.000  
 20  2 10 13 38  7.0000000  0  1R22
 -50053069.854    62573300.455         507.337          55.000  
 20  2 10 13 38  8.0000000  0  1R22
 -50053164.498    62572793.660         506.316          55.000  
 20  2 10 13 38  9.0000000  0  1R22
 -50053259.926    62572287.830         505.337          55.000  
 20  2 10 13 38 10.0000000  0  1R22
 -50053354.178    62571782.963         504.367          55.000  
 20  2 10 13 38 11.0000000  0  1R22
 -50053448.227    62571279.050         503.449          55.000  
 20  2 10 13 38 12.0000000  0  1R22
 -50053542.275    62570776.097         502.507          55.000  
 20  2 10 13 38 13.0000000  0  1R22
 -50053636.832    62570274.103         501.559          55.000  
 20  2 10 13 38 14.0000000  0  1R22
 -50053730.808    62569773.064         500.563          55.000  
 20  2 10 13 38 15.0000000  0  1R22
 -50053824.275    62569272.982         499.568          55.000  
 20  2 10 13 38 16.0000000  0  1R22
 -50053917.670    62568773.863         498.695          55.000  
 20  2 10 13 38 17.0000000  0  1R22
 -50054011.151    62568275.725         497.579          55.000  
 20  2 10 13 38 18.0000000  0  1R22
 -50054104.314    62567778.546         496.724          55.000  
 20  2 10 13 38 19.0000000  0  1R22
 -50054197.055    62567282.325         495.709          55.000  
 20  2 10 13 38 20.0000000  0  1R22
 -50054290.304    62566787.074         494.643          55.000  
 20  2 10 13 38 21.0000000  0  1R22
 -50054382.609    62566292.774         493.719          55.000  
 20  2 10 13 38 22.0000000  0  1R22
 -50054474.915    62565799.442         492.800          55.000  
 20  2 10 13 38 23.0000000  0  1R22
 -50054566.929    62565307.076         491.914          55.000  
 20  2 10 13 38 24.0000000  0  1R22
 -50054659.234    62564815.677         490.930          55.000  
 20  2 10 13 38 25.0000000  0  1R22
 -50054751.612    62564325.225         490.217          55.000  
 20  2 10 13 38 26.0000000  0  1R22
 -50054843.554    62563835.761         489.422          55.000  
 20  2 10 13 38 27.0000000  0  1R22
 -50054935.424    62563347.343         487.380          55.000  
 20  2 10 13 38 28.0000000  0  1R22
 -50055027.293    62562859.766         486.365          55.000  
 20  2 10 13 38 29.0000000  0  1R22
 -50055119.163    62562373.109         486.104          55.000  
 20  2 10 13 38 30.0000000  0  1R22
 -50055209.725    62561887.483         485.720          55.000  
 20  2 10 13 38 31.0000000  0  1R22
 -50055299.270    62561402.872         484.396          55.000  
 20  2 10 13 38 32.0000000  0  1R22
 -50055389.614    62560919.184         482.968          55.000  
 20  2 10 13 38 33.0000000  0  1R22
 -50055479.522    62560436.423         481.894          55.000  
 20  2 10 13 38 34.0000000  0  1R22
 -50055569.939    62559954.602         481.300          54.000  
 20  2 10 13 38 35.0000000  0  1R22
 -50055660.283    62559473.776         480.648          55.000  
 20  2 10 13 38 36.0000000  0  1R22
 -50055750.047    62558993.960         479.653          55.000  
 20  2 10 13 38 37.0000000  0  1R22
 -50055839.446    62558515.106         478.427          55.000  
 20  2 10 13 38 38.0000000  0  1R22
 -50055929.210    62558037.196         477.187          55.000  
 20  2 10 13 38 39.0000000  0  1R22
 -50056018.174    62557560.231         476.283          55.000  
 20  2 10 13 38 40.0000000  0  1R22
 -50056107.211    62557084.219         475.613          55.000  
 20  2 10 13 38 41.0000000  0  1R22
 -50056196.320    62556609.200         474.791          55.000  
 20  2 10 13 38 42.0000000  0  1R22
 -50056285.052    62556135.149         473.693          55.000  
 20  2 10 13 38 43.0000000  0  1R22
 -50056374.030    62555662.054         472.504          55.000  
 20  2 10 13 38 44.0000000  0  1R22
 -50056462.196    62555189.907         471.411          55.000  
 20  2 10 13 38 45.0000000  0  1R22
 -50056550.434    62554718.690         470.535          55.000  
 20  2 10 13 38 46.0000000  0  1R22
 -50056638.962    62554248.465         470.015          55.000  
 20  2 10 13 38 47.0000000  0  1R22
 -50056726.691    62553779.247         468.939          55.000  
 20  2 10 13 38 48.0000000  0  1R22
 -50056814.407    62553310.984         467.554          55.000  
 20  2 10 13 38 49.0000000  0  1R22
 -50056901.569    62552843.630         466.505          55.000  
 20  2 10 13 38 50.0000000  0  1R22
 -50056989.226    62552377.238         465.974          55.000  
 20  2 10 13 38 51.0000000  0  1R22
 -50057076.651    62551911.849         465.115          55.000  
 20  2 10 13 38 52.0000000  0  1R22
 -50057163.291    62551447.432         464.041          55.000  
 20  2 10 13 38 53.0000000  0  1R22
 -50057249.872    62550983.963         462.908          55.000  
 20  2 10 13 38 54.0000000  0  1R22
 -50057336.716    62550521.441         461.928          55.000  
 20  2 10 13 38 55.0000000  0  1R22
 -50057423.283    62550059.876         461.103          55.000  
 20  2 10 13 38 56.0000000  0  1R22
 -50057509.647    62549599.281         460.189          55.000  
 20  2 10 13 38 57.0000000  0  1R22
 -50057595.779    62549139.656         459.183          55.000  
 20  2 10 13 38 58.0000000  0  1R22
 -50057682.128    62548680.995         458.174          55.000  
 20  2 10 13 38 59.0000000  0  1R22
 -50057767.229    62548223.289         457.225          55.000  
 20  2 10 13 39  0.0000000  0  1R22
 -50057853.156    62547766.549         456.224          55.000  
 20  2 10 13 39  1.0000000  0  1R22
 -50057938.562    62547310.772         455.177          55.000  
 20  2 10 13 39  2.0000000  0  1R22
 -50058023.517    62546855.958         454.344          55.000  
 20  2 10 13 39  3.0000000  0  1R22
 -50058108.632    62546402.134         453.436          55.000  
 20  2 10 13 39  4.0000000  0  1R22
 -50058193.383    62545949.275         452.492          55.000  
 20  2 10 13 39  5.0000000  0  1R22
 -50058278.207    62545497.385         451.448          55.000  
 20  2 10 13 39  6.0000000  0  1R22
 -50058362.683    62545046.455         450.422          55.000  
 20  2 10 13 39  7.0000000  0  1R22
 -50058446.853    62544596.472         449.408          55.000  
 20  2 10 13 39  8.0000000  0  1R22
 -50058530.646    62544147.447         448.485          55.000  
 20  2 10 13 39  9.0000000  0  1R22
 -50058614.831    62543699.374         447.598          55.000  
 20  2 10 13 39 10.0000000  0  1R22
 -50058698.421    62543252.272         446.604          55.000  
 20  2 10 13 39 11.0000000  0  1R22
 -50058782.373    62542806.129         445.639          55.000  
 20  2 10 13 39 12.0000000  0  1R22
 -50058865.745    62542360.973         444.781          55.000  
 20  2 10 13 39 13.0000000  0  1R22
 -50058948.957    62541916.784         443.629          55.000  
 20  2 10 13 39 14.0000000  0  1R22
 -50059031.529    62541473.533         442.568          55.000  
 20  2 10 13 39 15.0000000  0  1R22
 -50059114.247    62541031.231         441.709          55.000  
 20  2 10 13 39 16.0000000  0  1R22
 -50059197.546    62540589.899         440.929          55.000  
 20  2 10 13 39 17.0000000  0  1R22
 -50059280.133    62540149.540         440.049          55.000  
 20  2 10 13 39 18.0000000  0  1R22
 -50059362.692    62539710.155         439.036          55.000  
 20  2 10 13 39 19.0000000  0  1R22
 -50059444.756    62539271.734         437.906          54.000  
 20  2 10 13 39 20.0000000  0  1R22
 -50059526.384    62538834.301         436.728          55.000  
 20  2 10 13 39 21.0000000  0  1R22
 -50059607.736    62538397.800         436.024          55.000  
 20  2 10 13 39 22.0000000  0  1R22
 -50059689.583    62537962.281         434.943          55.000  
 20  2 10 13 39 23.0000000  0  1R22
 -50059771.066    62537527.702         434.061          55.000  
 20  2 10 13 39 24.0000000  0  1R22
 -50059852.898    62537094.075         433.375          54.000  
 20  2 10 13 39 25.0000000  0  1R22
 -50059933.306    62536661.446         432.236          55.000  
 20  2 10 13 39 26.0000000  0  1R22
 -50060014.121    62536229.761         431.070          55.000  
 20  2 10 13 39 27.0000000  0  1R22
 -50060094.805    62535799.029         430.197          55.000  
 20  2 10 13 39 28.0000000  0  1R22
 -50060175.490    62535369.270         429.422          55.000  
 20  2 10 13 39 29.0000000  0  1R22
 -50060255.680    62534940.499         428.451          55.000  
 20  2 10 13 39 30.0000000  0  1R22
 -50060335.551    62534512.694         427.191          55.000  
 20  2 10 13 39 31.0000000  0  1R22
 -50060415.944    62534085.829         426.278          55.000  
 20  2 10 13 39 32.0000000  0  1R22
 -50060496.047    62533659.919         425.379          55.000  
 20  2 10 13 39 33.0000000  0  1R22
 -50060575.584    62533234.980         424.527          54.000  
 20  2 10 13 39 34.0000000  0  1R22
 -50060654.874    62532811.008         423.553          54.000  
 20  2 10 13 39 35.0000000  0  1R22
 -50060734.541    62532388.018         422.527          54.000  
 20  2 10 13 39 36.0000000  0  1R22
 -50060813.119    62531965.986         421.489          55.000  
 20  2 10 13 39 37.0000000  0  1R22
 -50060892.205    62531544.911         420.486          55.000  
 20  2 10 13 39 38.0000000  0  1R22
 -50060970.711    62531124.783         419.616          55.000  
 20  2 10 13 39 39.0000000  0  1R22
 -50061049.434    62530705.610         418.792          55.000  
 20  2 10 13 39 40.0000000  0  1R22
 -50061127.721    62530287.422         417.823          54.000  
 20  2 10 13 39 41.0000000  0  1R22
 -50061205.863    62529870.190         416.804          55.000  
 20  2 10 13 39 42.0000000  0  1R22
 -50061283.715    62529453.927         415.715          55.000  
 20  2 10 13 39 43.0000000  0  1R22
 -50061361.712    62529038.623         414.734          55.000  
 20  2 10 13 39 44.0000000  0  1R22
 -50061439.346    62528624.275         413.878          55.000  
 20  2 10 13 39 45.0000000  0  1R22
 -50061516.761    62528210.915         413.118          55.000  
 20  2 10 13 39 46.0000000  0  1R22
 -50061594.177    62527798.547         412.004          55.000  
 20  2 10 13 39 47.0000000  0  1R22
 -50061671.520    62527387.126         410.870          55.000  
 20  2 10 13 39 48.0000000  0  1R22
 -50061748.864    62526976.653         409.778          55.000  
 20  2 10 13 39 49.0000000  0  1R22
 -50061826.207    62526567.143         408.965          55.000  
 20  2 10 13 39 50.0000000  0  1R22
 -50061903.405    62526158.587         408.133          55.000  
 20  2 10 13 39 51.0000000  0  1R22
 -50061979.281    62525750.992         407.228          55.000  
 20  2 10 13 39 52.0000000  0  1R22
 -50062054.460    62525344.344         406.108          55.000  
 20  2 10 13 39 53.0000000  0  1R22
 -50062129.914    62524938.636         405.112          55.000  
 20  2 10 13 39 54.0000000  0  1R22
 -50062205.442    62524533.897         404.212          55.000  
 20  2 10 13 39 55.0000000  0  1R22
 -50062280.751    62524130.134         403.363          55.000  
 20  2 10 13 39 56.0000000  0  1R22
 -50062356.264    62523727.366         402.374          55.000  
 20  2 10 13 39 57.0000000  0  1R22
 -50062431.734    62523325.579         401.371          55.000  
 20  2 10 13 39 58.0000000  0  1R22
 -50062506.680    62522924.755         400.316          55.000  
 20  2 10 13 39 59.0000000  0  1R22
 -50062581.408    62522524.876         399.279          55.000  
 20  2 10 13 40  0.0000000  0  1R22
 -50062656.137    62522125.951         398.430          55.000  
 20  2 10 13 40  1.0000000  0  1R22
 -50062731.083    62521727.985         397.652          55.000  
 20  2 10 13 40  2.0000000  0  1R22
 -50062805.361    62521330.995         396.935          55.000  
 20  2 10 13 40  3.0000000  0  1R22
 -50062879.596    62520935.001         395.837          55.000  
 20  2 10 13 40  4.0000000  0  1R22
 -50062953.511    62520540.007         394.363          55.000  
 20  2 10 13 40  5.0000000  0  1R22
 -50063027.164    62520145.918         393.173          55.000  
 20  2 10 13 40  6.0000000  0  1R22
 -50063100.513    62519752.738         392.428          55.000  
 20  2 10 13 40  7.0000000  0  1R22
 -50063174.283    62519360.534         391.924          55.000  
 20  2 10 13 40  8.0000000  0  1R22
 -50063247.791    62518969.315         391.047          55.000  
 20  2 10 13 40  9.0000000  0  1R22
 -50063320.631    62518579.079         389.921          55.000  
 20  2 10 13 40 10.0000000  0  1R22
 -50063393.108    62518189.837         388.585          55.000  
 20  2 10 13 40 11.0000000  0  1R22
 -50063466.093    62517801.533         387.456          55.000  
 20  2 10 13 40 12.0000000  0  1R22
 -50063538.701    62517414.169         386.752          55.000  
 20  2 10 13 40 13.0000000  0  1R22
 -50063610.684    62517027.766         386.132          55.000  
 20  2 10 13 40 14.0000000  0  1R22
 -50063683.233    62516642.336         385.182          55.000  
 20  2 10 13 40 15.0000000  0  1R22
 -50063755.260    62516257.877         383.990          55.000  
 20  2 10 13 40 16.0000000  0  1R22
 -50063826.880    62515874.365         382.807          55.000  
 20  2 10 13 40 17.0000000  0  1R22
 -50063898.848    62515491.798         381.883          55.000  
 20  2 10 13 40 18.0000000  0  1R22
 -50063970.512    62515110.206         381.137          55.000  
 20  2 10 13 40 19.0000000  0  1R22
 -50064042.132    62514729.591         380.288          55.000  
 20  2 10 13 40 20.0000000  0  1R22
 -50064112.502    62514349.961         379.205          55.000  
 20  2 10 13 40 21.0000000  0  1R22
 -50064183.439    62513971.271         378.321          55.000  
 20  2 10 13 40 22.0000000  0  1R22
 -50064254.478    62513593.573         377.127          55.000  
 20  2 10 13 40 23.0000000  0  1R22
 -50064325.067    62513216.831         376.199          55.000  
 20  2 10 13 40 24.0000000  0  1R22
 -50064395.582    62512841.047         375.349          55.000  
 20  2 10 13 40 25.0000000  0  1R22
 -50064465.880    62512466.228         374.368          55.000  
 20  2 10 13 40 26.0000000  0  1R22
 -50064535.873    62512092.360         373.400          55.000  
 20  2 10 13 40 27.0000000  0  1R22
 -50064605.242    62511719.456         372.516          55.000  
 20  2 10 13 40 28.0000000  0  1R22
 -50064674.799    62511347.526         371.486          55.000  
 20  2 10 13 40 29.0000000  0  1R22
 -50064744.661    62510976.571         370.433          55.000  
 20  2 10 13 40 30.0000000  0  1R22
 -50064813.942    62510606.572         369.520          55.000  
 20  2 10 13 40 31.0000000  0  1R22
 -50064883.093    62510237.579         368.336          55.000  
 20  2 10 13 40 32.0000000  0  1R22
 -50064952.287    62509869.515         367.273          55.000  
 20  2 10 13 40 33.0000000  0  1R22
 -50065021.727    62509502.402         366.576          55.000  
 20  2 10 13 40 34.0000000  0  1R22
 -50065089.832    62509136.268         365.820          55.000  
 20  2 10 13 40 35.0000000  0  1R22
 -50065158.038    62508771.075         365.105          55.000  
 20  2 10 13 40 36.0000000  0  1R22
 -50065226.012    62508406.850         364.220          55.000  
 20  2 10 13 40 37.0000000  0  1R22
 -50065294.262    62508043.609         362.551          55.000  
